{
"type": "FeatureCollection",
"crs": { "type": "name", "properties": { "name": "urn:ogc:def:crs:OGC:1.3:CRS84" } },
"features": [
{ "type": "Feature", "properties": { "Name": "Third Street Stuff and Coffee", "ADDRESS": "257 North Limestone", "City": "Lexington", "State": "KY", "addrtype": "premise", "addrlocat": "ROOFTOP", "instore": "YES", "entryway": "YES", "bathroom": "YES", "visual": "NO", "outlets": "YES" }, "geometry": { "type": "Point", "coordinates": [ -84.493010561844642, 38.049419894124675 ] } },
{ "type": "Feature", "properties": { "Name": "Columbia's", "ADDRESS": "201 North Limestone", "City": "Lexington", "State": "KY", "addrtype": "premise", "addrlocat": "ROOFTOP", "instore": "YES", "entryway": "YES", "bathroom": "NO", "visual": "NO", "outlets": "YES" }, "geometry": { "type": "Point", "coordinates": [ -84.4944387, 38.048415399999783 ] } },
{ "type": "Feature", "properties": { "Name": "Shorty's Tap Room", "ADDRESS": "163 West Short Street", "City": "Lexington", "State": "KY", "addrtype": "street_address", "addrlocat": "ROOFTOP", "instore": "YES", "entryway": "YES", "bathroom": "YES", "visual": "NO", "outlets": "YES" }, "geometry": { "type": "Point", "coordinates": [ -84.4968203, 38.047762099999773 ] } },
{ "type": "Feature", "properties": { "Name": "Molly Brooke's", "ADDRESS": "109 North Limestone", "City": "Lexington", "State": "KY", "addrtype": "street_address", "addrlocat": "RANGE_INTERPOLATED", "instore": "YES", "entryway": "YES", "bathroom": "YES", "visual": "YES", "outlets": "YES" }, "geometry": { "type": "Point", "coordinates": [ -84.496855325127214, 38.046712727126753 ] } },
{ "type": "Feature", "properties": { "Name": "Trust", "ADDRESS": "123 West Main Street", "City": "Lexington", "State": "KY", "addrtype": "premise", "addrlocat": "ROOFTOP", "instore": "YES", "entryway": "YES", "bathroom": "YES", "visual": "NO", "outlets": "YES" }, "geometry": { "type": "Point", "coordinates": [ -84.4971403, 38.046831499999762 ] } },
{ "type": "Feature", "properties": { "Name": "Limestone Blue", "ADDRESS": "133 North Limestone", "City": "Lexington", "State": "KY", "addrtype": "street_address", "addrlocat": "ROOFTOP", "instore": "YES", "entryway": "YES", "bathroom": "YES", "visual": "NO", "outlets": "YES" }, "geometry": { "type": "Point", "coordinates": [ -84.496247647258414, 38.047164821408956 ] } },
{ "type": "Feature", "properties": { "Name": "Sidebar", "ADDRESS": "147 North Limestone", "City": "Lexington", "State": "KY", "addrtype": "premise", "addrlocat": "ROOFTOP", "instore": "YES", "entryway": "YES", "bathroom": "NO", "visual": "NO", "outlets": "YES" }, "geometry": { "type": "Point", "coordinates": [ -84.49605293386054, 38.04730377579488 ] } },
{ "type": "Feature", "properties": { "Name": "Le Deauville", "ADDRESS": "199 North Limestone", "City": "Lexington", "State": "KY", "addrtype": "street_address", "addrlocat": "ROOFTOP", "instore": "YES", "entryway": "YES", "bathroom": "YES", "visual": "YES", "outlets": "YES" }, "geometry": { "type": "Point", "coordinates": [ -84.4946447, 38.04825609999979 ] } },
{ "type": "Feature", "properties": { "Name": "George's Deli", "ADDRESS": "161 North Limestone", "City": "Lexington", "State": "KY", "addrtype": "premise", "addrlocat": "ROOFTOP", "instore": "YES", "entryway": "YES", "bathroom": "YES", "visual": "NO", "outlets": "YES" }, "geometry": { "type": "Point", "coordinates": [ -84.495631810296203, 38.047625599999769 ] } },
{ "type": "Feature", "properties": { "Name": "West Coast Gourmet", "ADDRESS": "325 West Main Street", "City": "Lexington", "State": "KY", "addrtype": "premise", "addrlocat": "ROOFTOP", "instore": "YES", "entryway": "YES", "bathroom": "YES", "visual": "NO", "outlets": null }, "geometry": { "type": "Point", "coordinates": [ -84.4991601, 38.048659199999769 ] } },
{ "type": "Feature", "properties": { "Name": "LexPark Office", "ADDRESS": "122 North Broadway", "City": "Lexington", "State": "KY", "addrtype": "street_address", "addrlocat": "ROOFTOP", "instore": "NO", "entryway": "YES", "bathroom": "NO", "visual": "NO", "outlets": "YES" }, "geometry": { "type": "Point", "coordinates": [ -84.499334287149409, 38.049098174263079 ] } },
{ "type": "Feature", "properties": { "Name": "Georgettes and Chiffons", "ADDRESS": "124 North Broadway", "City": "Lexington", "State": "KY", "addrtype": "street_address", "addrlocat": "ROOFTOP", "instore": "NO", "entryway": "YES", "bathroom": "NO", "visual": "NO", "outlets": "YES" }, "geometry": { "type": "Point", "coordinates": [ -84.499226642518309, 38.049019577277114 ] } },
{ "type": "Feature", "properties": { "Name": "Clawdaddy's", "ADDRESS": "128 North Broadway", "City": "Lexington", "State": "KY", "addrtype": "street_address", "addrlocat": "ROOFTOP", "instore": "YES", "entryway": "YES", "bathroom": "YES", "visual": "YES", "outlets": "YES" }, "geometry": { "type": "Point", "coordinates": [ -84.499236992969884, 38.049175729235081 ] } },
{ "type": "Feature", "properties": { "Name": "Savane Silver", "ADDRESS": "130 North Broadway", "City": "Lexington", "State": "KY", "addrtype": "street_address", "addrlocat": "ROOFTOP", "instore": "YES", "entryway": "YES", "bathroom": "YES", "visual": "NO", "outlets": "YES" }, "geometry": { "type": "Point", "coordinates": [ -84.499138482902694, 38.049240756478468 ] } },
{ "type": "Feature", "properties": { "Name": "Heritage Antiques", "ADDRESS": "154 North Broadway", "City": "Lexington", "State": "KY", "addrtype": "premise", "addrlocat": "ROOFTOP", "instore": "YES", "entryway": "NO", "bathroom": "NO", "visual": "YES", "outlets": "NO" }, "geometry": { "type": "Point", "coordinates": [ -84.49813455148113, 38.049920368769541 ] } },
{ "type": "Feature", "properties": { "Name": "Garner and Prather Law Office", "ADDRESS": "141 North Broadway", "City": "Lexington", "State": "KY", "addrtype": "premise", "addrlocat": "ROOFTOP", "instore": "NO", "entryway": "YES", "bathroom": "NO", "visual": "YES", "outlets": "NO" }, "geometry": { "type": "Point", "coordinates": [ -84.498977332040937, 38.049822710970403 ] } },
{ "type": "Feature", "properties": { "Name": "Saul Good", "ADDRESS": "123 North Broadway", "City": "Lexington", "State": "KY", "addrtype": "premise", "addrlocat": "ROOFTOP", "instore": "YES", "entryway": "YES", "bathroom": "YES", "visual": "NO", "outlets": "YES" }, "geometry": { "type": "Point", "coordinates": [ -84.4995509, 38.049443699999756 ] } },
{ "type": "Feature", "properties": { "Name": "First National Building", "ADDRESS": "167 West Main Street", "City": "Lexington", "State": "KY", "addrtype": "street_address", "addrlocat": "ROOFTOP", "instore": "YES", "entryway": "YES", "bathroom": "YES", "visual": "YES", "outlets": "YES" }, "geometry": { "type": "Point", "coordinates": [ -84.4975089, 38.047193999999763 ] } },
{ "type": "Feature", "properties": { "Name": "Lexington Financial Center", "ADDRESS": "250 West Main Street", "City": "Lexington", "State": "KY", "addrtype": "premise", "addrlocat": "ROOFTOP", "instore": "NO", "entryway": "YES", "bathroom": "YES", "visual": "YES", "outlets": "NO" }, "geometry": { "type": "Point", "coordinates": [ -84.499128, 38.047614199999785 ] } },
{ "type": "Feature", "properties": { "Name": "Main St. Deli and Catering", "ADDRESS": "380 West Main Street", "City": "Lexington", "State": "KY", "addrtype": "street_address", "addrlocat": "ROOFTOP", "instore": "YES", "entryway": "YES", "bathroom": "YES", "visual": "NO", "outlets": "NO" }, "geometry": { "type": "Point", "coordinates": [ -84.4999395, 38.048362999999789 ] } }
]
}
